{
  "login": [
    {
      "email": "admin@example.com",
      "password": "abcd0011"
    }
  ],
  "vanues": [
    {
      "id": "1",
      "name": "Central Park",
      "contact": {
        "phone": "712-330-6768",
        "formattedPhone": "(212) 310-6600",
        "twitter": "centralparknyc",
        "instagram": "centralparknyc",
        "facebook": "37965424481",
        "facebookUsername": "centralparknyc",
        "facebookName": "Central Park"
      },
      "location": {
        "address": "59th St to 110th St",
        "crossStreet": "5th Ave to Central Park West",
        "lat": 40.78408342593807,
        "lng": -73.96485328674316,
        "postalCode": "10028",
        "cc": "US",
        "city": "Cedar Rapids",
        "state": "286 Progress Way",
        "country": "United States"
      },
      "rating": 9.8
    },
    {
        "id": "2",
        "name": "Ashley Smith",
        "contact": {
          "phone": "(419) 375-2051",
          "formattedPhone": "(419) 375-2051",
          "twitter": "centralparknyc",
          "instagram": "centralparknyc",
          "facebook": "37965424481",
          "facebookUsername": "centralparknyc",
          "facebookName": "Central Park"
        },
        "location": {
          "address": "117 E Broadway St #LOT 40, Fort Recovery, OH, 45846",
          "crossStreet": "5th Ave to Central Park West",
          "lat": 40.78408342593807,
          "lng": -73.96485328674316,
          "postalCode": "10028",
          "cc": "US",
          "city": "New York",
          "state": "NY",
          "country": "United States"
        },
        "rating": 7.8
      },
      {
        "id": "3",
        "name": " David I Smith",
        "contact": {
          "phone": "(631) 757-2379",
          "formattedPhone": "(212) 310-6600",
          "twitter": "centralparknyc",
          "instagram": "centralparknyc",
          "facebook": "37965424481",
          "facebookUsername": "centralparknyc",
          "facebookName": " David I Smith"
        },
        "location": {
          "address": "9 Cayuga Ave, East Northport, NY, 11731  ",
          "crossStreet": "5th Ave to Central Park West",
          "lat": 40.78408342593807,
          "lng": -73.96485328674316,
          "postalCode": "10028",
          "cc": "US",
          "city": "New York",
          "state": "NY",
          "country": "United States"
        },
        "rating": 7.8
      },
      {
        "id": "4",
        "name": "Dustin K Johnson",
        "contact": {
          "phone": "2123106600",
          "formattedPhone": "(212) 310-6600",
          "twitter": "centralparknyc",
          "instagram": "centralparknyc",
          "facebook": "37965424481",
          "facebookUsername": "centralparknyc",
          "facebookName": "Central Park"
        },
        "location": {
          "address": "59th St to 110th St",
          "crossStreet": " 1167 Blaine Ave, Blaine, WA, 98230  ",
          "lat": 40.78408342593807,
          "lng": -73.96485328674316,
          "postalCode": "10028",
          "cc": "US",
          "city": "New York",
          "state": "NY",
          "country": "United States"
        },
        "rating": 7.8
      },
      {
        "id": "5",
        "name": " Helen Johnson",
        "contact": {
          "phone": "2123106600",
          "formattedPhone": "(212) 310-6600",
          "twitter": "centralparknyc",
          "instagram": "centralparknyc",
          "facebook": "37965424481",
          "facebookUsername": "centralparknyc",
          "facebookName": "Central Park"
        },
        "location": {
          "address": "1428 S Pearce St, Owosso, MI, 48867  ",
          "crossStreet": "5th Ave to Central Park West",
          "lat": 40.78408342593807,
          "lng": -73.96485328674316,
          "postalCode": "10028",
          "cc": "US",
          "city": "New York",
          "state": "NY",
          "country": "United States"
        },
        "rating": 7.8
      },
      {
        "id": "6",
        "name": "M D Johnson",
        "contact": {
          "phone": "2123106600",
          "formattedPhone": "(212) 310-6600",
          "twitter": "centralparknyc",
          "instagram": "centralparknyc",
          "facebook": "37965424481",
          "facebookUsername": "centralparknyc",
          "facebookName": "Central Park"
        },
        "location": {
          "address": "6533 Bentley Ave, Willowbrook, IL, 60527",
          "crossStreet": "5th Ave to Central Park West",
          "lat": 40.78408342593807,
          "lng": -73.96485328674316,
          "postalCode": "10028",
          "cc": "US",
          "city": "New York",
          "state": "NY",
          "country": "United States"
        },
        "rating": 7.8
      },
      {
        "id": "7",
        "name": "Jennifer Smith",
        "contact": {
          "phone": "(229) 787-5251",
          "formattedPhone": "(229) 787-5251",
          "twitter": "centralparknyc",
          "instagram": "centralparknyc",
          "facebook": "37965424481",
          "facebookUsername": "centralparknyc",
          "facebookName": "Central Park"
        },
        "location": {
          "address": " 10470 Us 19 Hwy, Baconton, GA, 31716  ",
          "crossStreet": "5th Ave to Central Park West",
          "lat": 40.78408342593807,
          "lng": -73.96485328674316,
          "postalCode": "10028",
          "cc": "US",
          "city": "New York",
          "state": "NY",
          "country": "United States"
        },
        "rating": 7.8
      },
      {
        "id": "8",
        "name": "Lale Johnson",
        "contact": {
          "phone": "2123106600",
          "formattedPhone": "(212) 310-6600",
          "twitter": "centralparknyc",
          "instagram": "centralparknyc",
          "facebook": "37965424481",
          "facebookUsername": "centralparknyc",
          "facebookName": "Central Park"
        },
        "location": {
          "address": " 25705 W Brookhart Way, Wittmann, AZ, 85361",
          "crossStreet": "5th Ave to Central Park West",
          "lat": 40.78408342593807,
          "lng": -73.96485328674316,
          "postalCode": "10028",
          "cc": "US",
          "city": "New York",
          "state": "NY",
          "country": "United States"
        },
        "rating": 7.8
      },
      {
        "id": "9",
        "name": "Kendra Smith",
        "contact": {
          "phone": "(662) 592-0468",
          "formattedPhone": "(662) 592-0468",
          "twitter": "centralparknyc",
          "instagram": "centralparknyc",
          "facebook": "37965424481",
          "facebookUsername": "centralparknyc",
          "facebookName": "Central Park"
        },
        "location": {
          "address": "210 Magnolia Ct, Clarksdale, MS, 38614  ",
          "crossStreet": "5th Ave to Central Park West",
          "lat": 40.78408342593807,
          "lng": -73.96485328674316,
          "postalCode": "10028",
          "cc": "US",
          "city": "New York",
          "state": "NY",
          "country": "United States"
        },
        "rating": 7.8
      },
      {
        "id": "10",
        "name": "Andrew Johnson",
        "contact": {
          "phone": " (970) 314-9505",
          "formattedPhone": " (970) 314-9505",
          "twitter": "centralparknyc",
          "instagram": "centralparknyc",
          "facebook": "37965424481",
          "facebookUsername": "centralparknyc",
          "facebookName": "Central Park"
        },
        "location": {
          "address": "2784 Hartford Ct, Grand Junction, CO, 81503  ",
          "crossStreet": "5th Ave to Central Park West",
          "lat": 40.78408342593807,
          "lng": -73.96485328674316,
          "postalCode": "10028",
          "cc": "US",
          "city": "New York",
          "state": "NY",
          "country": "United States"
        },
        "rating": 7.8
      },
      {
        "id": "11",
        "name": "Charles L Smith",
        "contact": {
          "phone": "2123106600",
          "formattedPhone": "(212) 310-6600",
          "twitter": "centralparknyc",
          "instagram": "centralparknyc",
          "facebook": "37965424481",
          "facebookUsername": "centralparknyc",
          "facebookName": "Central Park"
        },
        "location": {
          "address": "2362 Juniper Ave, Fairfield, IA, 52556",
          "crossStreet": "2362 Juniper Ave, Fairfield, IA, 52556 ",
          "lat": 40.78408342593807,
          "lng": -73.96485328674316,
          "postalCode": "10028",
          "cc": "US",
          "city": "New York",
          "state": "NY",
          "country": "United States"
        },
        "rating": 7.8
      },
      {
        "id": "12",
        "name": "Central Park",
        "contact": {
          "phone": "2123106600",
          "formattedPhone": "(212) 310-6600",
          "twitter": "centralparknyc",
          "instagram": "centralparknyc",
          "facebook": "37965424481",
          "facebookUsername": "centralparknyc",
          "facebookName": "Central Park"
        },
        "location": {
          "address": "59th St to 110th St",
          "crossStreet": "5th Ave to Central Park West",
          "lat": 40.78408342593807,
          "lng": -73.96485328674316,
          "postalCode": "10028",
          "cc": "US",
          "city": "New York",
          "state": "NY",
          "country": "United States"
        },
        "rating": 7.8
      }
      
  ]
}